{"version": 0.6, "generator": "Overpass API 0.7.62.1 084b4234", "osm3s": {"timestamp_osm_base": "2024-06-07T04:17:09Z", "copyright": "The data included in this document is from www.openstreetmap.org. The data is made available under ODbL."}, "elements": [{"type": "node", "id": 2023937320, "lat": -12.0909506, "lon": -77.0806867, "tags": {"amenity": "place_of_worship", "name": "Iglesia Nuestra Se\u00f1ora Del Carmen", "religion": "christian", "source": "http://www.arzobispadodelima.org/"}}, {"type": "node", "id": 2023937322, "lat": -12.080287, "lon": -77.092659, "tags": {"amenity": "place_of_worship", "name": "Parroquia Cristo Sacerdote", "religion": "christian", "source": "http://www.arzobispadodelima.org/"}}, {"type": "node", "id": 2023937330, "lat": -12.076644, "lon": -77.104652, "tags": {"amenity": "place_of_worship", "name": "Parroquia Jes\u00fas Redentor", "religion": "christian", "source": "http://www.arzobispadodelima.org/"}}, {"type": "node", "id": 2023937340, "lat": -12.087688, "lon": -77.088211, "tags": {"amenity": "place_of_worship", "name": "Parroquia Mar\u00eda Madre de Dios", "religion": "christian", "source": "http://www.arzobispadodelima.org/"}}, {"type": "node", "id": 2023937521, "lat": -12.080292, "lon": -77.079613, "tags": {"amenity": "place_of_worship", "name": "Parroquia San Judas Tadeo", "religion": "christian", "source": "http://www.arzobispadodelima.org/"}}, {"type": "node", "id": 2023937547, "lat": -12.070241, "lon": -77.093498, "tags": {"amenity": "place_of_worship", "name": "Parroquia San Miguel Arc\u00e1ngel", "religion": "christian", "source": "http://www.arzobispadodelima.org/"}}, {"type": "node", "id": 4331215851, "lat": -12.088814, "lon": -77.0865566}, {"type": "node", "id": 4331215852, "lat": -12.0888475, "lon": -77.0864877}, {"type": "node", "id": 4331215853, "lat": -12.0887739, "lon": -77.0864503}, {"type": "node", "id": 4331215854, "lat": -12.0887404, "lon": -77.0865192}, {"type": "node", "id": 4331322488, "lat": -12.0895268, "lon": -77.0840176}, {"type": "node", "id": 4331324189, "lat": -12.0895968, "lon": -77.083868}, {"type": "node", "id": 4331324190, "lat": -12.0895027, "lon": -77.083822}, {"type": "node", "id": 4331324191, "lat": -12.0894327, "lon": -77.0839715}, {"type": "node", "id": 4346609877, "lat": -12.073867, "lon": -77.0986972}, {"type": "node", "id": 4346609879, "lat": -12.0737396, "lon": -77.0987578}, {"type": "node", "id": 4346609880, "lat": -12.0738738, "lon": -77.0987149}, {"type": "node", "id": 4346609881, "lat": -12.0738273, "lon": -77.0985628}, {"type": "node", "id": 4346609882, "lat": -12.0736931, "lon": -77.0986056}, {"type": "node", "id": 4347757799, "lat": -12.0799915, "lon": -77.0764125}, {"type": "node", "id": 4347757800, "lat": -12.0800335, "lon": -77.0762955}, {"type": "node", "id": 4347757801, "lat": -12.0800891, "lon": -77.0763165}, {"type": "node", "id": 4347757802, "lat": -12.0800475, "lon": -77.0764334}, {"type": "node", "id": 4429530968, "lat": -12.08157, "lon": -77.0864858}, {"type": "node", "id": 4429530969, "lat": -12.0819012, "lon": -77.086603}, {"type": "node", "id": 4429530970, "lat": -12.0820445, "lon": -77.0862806}, {"type": "node", "id": 4429530971, "lat": -12.0819713, "lon": -77.0862383}, {"type": "node", "id": 4429530972, "lat": -12.0820955, "lon": -77.0860005}, {"type": "node", "id": 4429530973, "lat": -12.0817388, "lon": -77.0858768}, {"type": "node", "id": 4429530974, "lat": -12.0816846, "lon": -77.0858931}, {"type": "node", "id": 4466937101, "lat": -12.0695341, "lon": -77.080147, "tags": {"amenity": "place_of_worship", "denomination": "catholic", "religion": "christian", "toilets:wheelchair": "no", "wheelchair": "yes"}}, {"type": "node", "id": 4730007690, "lat": -12.0777227, "lon": -77.0904351, "tags": {"amenity": "place_of_worship", "name": "IACYM", "name:en": "IACYM", "name:es": "IACYM"}}, {"type": "node", "id": 5225622423, "lat": -12.0814195, "lon": -77.0868767, "tags": {"amenity": "place_of_worship", "name": "Iglesia A. De Dios. Pas. Antonio"}}, {"type": "node", "id": 5695249307, "lat": -12.0909852, "lon": -77.0807361}, {"type": "node", "id": 5695249308, "lat": -12.0910613, "lon": -77.0807805}, {"type": "node", "id": 5695249309, "lat": -12.0911609, "lon": -77.0805827}, {"type": "node", "id": 5695249310, "lat": -12.0910805, "lon": -77.0805405}, {"type": "node", "id": 5744767527, "lat": -12.0752599, "lon": -77.0933053}, {"type": "node", "id": 5744767528, "lat": -12.0753113, "lon": -77.0932224}, {"type": "node", "id": 5744767529, "lat": -12.0751503, "lon": -77.0931209}, {"type": "node", "id": 5744767530, "lat": -12.0750744, "lon": -77.093246}, {"type": "node", "id": 5744767531, "lat": -12.0751333, "lon": -77.0932852}, {"type": "node", "id": 5744767532, "lat": -12.0751629, "lon": -77.0932458}, {"type": "node", "id": 6802779665, "lat": -12.08783, "lon": -77.0781902}, {"type": "node", "id": 6802779666, "lat": -12.0879618, "lon": -77.0779357}, {"type": "node", "id": 6802779667, "lat": -12.0883047, "lon": -77.0781214}, {"type": "node", "id": 6802779668, "lat": -12.088173, "lon": -77.0783758}, {"type": "way", "id": 435182348, "nodes": [4331215851, 4331215852, 4331215853, 4331215854, 4331215851], "tags": {"addr:street": "Avenida La Paz", "amenity": "place_of_worship", "building": "yes", "fixme": "name", "name": "Iglesia de la Paz Coral 3 San Miguel", "religion": "christian", "source": "Reconocimiento cartogr\u00e1fico por KG 2016."}}, {"type": "way", "id": 435193293, "nodes": [4331322488, 4331324189, 4331324190, 4331324191, 4331322488], "tags": {"addr:street": "Jir\u00f3n Independencia", "amenity": "place_of_worship", "building": "yes", "name": "Iglesia Biblica Bautista", "religion": "christian", "source": "Reconocimiento cartogr\u00e1fico por KG 2016."}}, {"type": "way", "id": 436795391, "nodes": [4346609879, 4346609880, 4346609877, 4346609881, 4346609882, 4346609879], "tags": {"addr:street": "Machu Picchu", "amenity": "place_of_worship", "building": "yes", "name": "Iglesia Biblica Maranga", "religion": "christian"}}, {"type": "way", "id": 436925920, "nodes": [4347757799, 4347757800, 4347757801, 4347757802, 4347757799], "tags": {"addr:street": "Avenida La Marina", "amenity": "place_of_worship", "building": "yes", "name": "Sukyo Mahikari", "source": "Reconocimiento cartogr\u00e1fico de campo 2016 por KG"}}, {"type": "way", "id": 445542944, "nodes": [4429530968, 4429530969, 4429530970, 4429530971, 4429530972, 4429530973, 4429530974, 4429530968], "tags": {"amenity": "place_of_worship", "denomination": "mormon", "name": "La Iglesia de Jesucristo de los Santos de los \u00daltimos D\u00edas", "religion": "christian"}}, {"type": "way", "id": 598386907, "nodes": [5695249307, 5695249308, 5695249309, 5695249310, 5695249307], "tags": {"amenity": "place_of_worship", "building": "yes"}}, {"type": "way", "id": 605774042, "nodes": [5744767527, 5744767528, 5744767529, 5744767530, 5744767531, 5744767532, 5744767527], "tags": {"amenity": "place_of_worship", "building": "chapel", "name": "Capilla Santa Mar\u00eda de Maranga", "religion": "christian"}}, {"type": "way", "id": 725438883, "nodes": [6802779665, 6802779666, 6802779667, 6802779668, 6802779665], "tags": {"addr:city": "San Miguel", "addr:postcode": "15086", "addr:street": "Santa Ana", "amenity": "place_of_worship", "denomination": "seventh_day_adventist", "name:en": "Lds Church", "religion": "christian", "source": "Reconocimiento cartogr\u00e1fico por KG 2016."}}]}